[{
"name": "Talmadge",
"city": "Sheffield",
"latitude": 53.3788422,
"longitude": -1.4730092,
"wheelchairAccessible": true,
"country": "United Kingdom"
}, {
"name": "Graedel",
"city": "Swindon",
"latitude": 51.5487433,
"longitude": -1.7880953,
"wheelchairAccessible": false,
"country": "United Kingdom"
}, {
"name": "Village Green",
"city": "Hatton",
"latitude": 52.300713,
"longitude": -1.6462357,
"wheelchairAccessible": true,
"country": "United Kingdom"
}, {
"name": "Northland",
"city": "Milton",
"latitude": 57.6727414,
"longitude": -2.955445,
"wheelchairAccessible": true,
"country": "United Kingdom"
}, {
"name": "Shopko",
"city": "Walton",
"latitude": 52.177639,
"longitude": -1.585418,
"wheelchairAccessible": false,
"country": "United Kingdom"
}, {
"name": "Fair Oaks",
"city": "Church End",
"latitude": 51.598282,
"longitude": -0.198414,
"wheelchairAccessible": false,
"country": "United Kingdom"
}, {
"name": "Melrose",
"city": "Buckland",
"latitude": 51.1372058,
"longitude": 1.2986666,
"wheelchairAccessible": true,
"country": "United Kingdom"
}, {
"name": "Ruskin",
"city": "London",
"latitude": 51.5116933,
"longitude": -0.0829051,
"wheelchairAccessible": false,
"country": "United Kingdom"
}, {
"name": "Hoffman",
"city": "Pentre",
"latitude": 52.753093,
"longitude": -2.941678,
"wheelchairAccessible": true,
"country": "United Kingdom"
}, {
"name": "Quincy",
"city": "Preston",
"latitude": 53.763201,
"longitude": -2.70309,
"wheelchairAccessible": false,
"country": "United Kingdom"
}, {
"name": "Kings",
"city": "Norton",
"latitude": 52.2679288,
"longitude": -1.1202549,
"wheelchairAccessible": true,
"country": "United Kingdom"
}, {
"name": "Meadow Vale",
"city": "Hatton",
"latitude": 52.300713,
"longitude": -1.6462357,
"wheelchairAccessible": true,
"country": "United Kingdom"
}, {
"name": "Forster",
"city": "Sheffield",
"latitude": 53.3992318,
"longitude": -1.7622544,
"wheelchairAccessible": false,
"country": "United Kingdom"
}, {
"name": "Bartelt",
"city": "Ford",
"latitude": 51.962948,
"longitude": -1.875716,
"wheelchairAccessible": true,
"country": "United Kingdom"
}, {
"name": "Glendale",
"city": "Kingston",
"latitude": 50.887101,
"longitude": -2.355369,
"wheelchairAccessible": true,
"country": "United Kingdom"
}, {
"name": "2nd",
"city": "Leeds",
"latitude": 53.8145,
"longitude": -1.56285,
"wheelchairAccessible": true,
"country": "United Kingdom"
}, {
"name": "Johnson",
"city": "Craigavon",
"latitude": 54.4429264,
"longitude": -6.4175653,
"wheelchairAccessible": true,
"country": "United Kingdom"
}, {
"name": "Duke",
"city": "Pentre",
"latitude": 52.753093,
"longitude": -2.941678,
"wheelchairAccessible": false,
"country": "United Kingdom"
}, {
"name": "Sunnyside",
"city": "Norton",
"latitude": 53.3326454,
"longitude": -1.4631269,
"wheelchairAccessible": false,
"country": "United Kingdom"
}, {
"name": "Waxwing",
"city": "London",
"latitude": 51.5116933,
"longitude": -0.0829051,
"wheelchairAccessible": false,
"country": "United Kingdom"
}, {
"name": "Myrtle",
"city": "London",
"latitude": 51.5195403,
"longitude": -0.1255489,
"wheelchairAccessible": true,
"country": "United Kingdom"
}, {
"name": "Commercial",
"city": "Aston",
"latitude": 52.684744,
"longitude": -2.569913,
"wheelchairAccessible": false,
"country": "United Kingdom"
}, {
"name": "Hollow Ridge",
"city": "Bristol",
"latitude": 51.4063964,
"longitude": -2.6467239,
"wheelchairAccessible": true,
"country": "United Kingdom"
}, {
"name": "Hallows",
"city": "London",
"latitude": 51.5136143,
"longitude": -0.1365486,
"wheelchairAccessible": true,
"country": "United Kingdom"
}, {
"name": "Scofield",
"city": "Halton",
"latitude": 53.800245,
"longitude": -1.48003,
"wheelchairAccessible": true,
"country": "United Kingdom"
}, {
"name": "Meadow Ridge",
"city": "Sutton",
"latitude": 51.3614279,
"longitude": -0.193961,
"wheelchairAccessible": false,
"country": "United Kingdom"
}, {
"name": "Hudson",
"city": "Newbiggin",
"latitude": 54.9418362,
"longitude": -2.0871107,
"wheelchairAccessible": false,
"country": "United Kingdom"
}, {
"name": "Dakota",
"city": "Sutton",
"latitude": 51.3614279,
"longitude": -0.193961,
"wheelchairAccessible": true,
"country": "United Kingdom"
}, {
"name": "Nelson",
"city": "London",
"latitude": 51.5142805,
"longitude": -0.1284654,
"wheelchairAccessible": false,
"country": "United Kingdom"
}, {
"name": "Quincy",
"city": "West End",
"latitude": 53.46464,
"longitude": 0.04134,
"wheelchairAccessible": true,
"country": "United Kingdom"
}, {
"name": "Main",
"city": "Aberdeen",
"latitude": 56.968436,
"longitude": -2.2508745,
"wheelchairAccessible": false,
"country": "United Kingdom"
}, {
"name": "Petterle",
"city": "London",
"latitude": 51.5136143,
"longitude": -0.1365486,
"wheelchairAccessible": false,
"country": "United Kingdom"
}, {
"name": "Calypso",
"city": "Norton",
"latitude": 53.3326454,
"longitude": -1.4631269,
"wheelchairAccessible": true,
"country": "United Kingdom"
}, {
"name": "Prairie Rose",
"city": "Middleton",
"latitude": 52.501244,
"longitude": -0.766168,
"wheelchairAccessible": true,
"country": "United Kingdom"
}, {
"name": "Lunder",
"city": "Wirral",
"latitude": 53.3758568,
"longitude": -3.1605843,
"wheelchairAccessible": true,
"country": "United Kingdom"
}, {
"name": "Buhler",
"city": "Dean",
"latitude": 51.900276,
"longitude": -1.504654,
"wheelchairAccessible": false,
"country": "United Kingdom"
}, {
"name": "Nova",
"city": "Leeds",
"latitude": 53.8145,
"longitude": -1.56285,
"wheelchairAccessible": true,
"country": "United Kingdom"
}, {
"name": "Bowman",
"city": "Seaton",
"latitude": 52.574095,
"longitude": -0.672296,
"wheelchairAccessible": false,
"country": "United Kingdom"
}, {
"name": "Luster",
"city": "Milton",
"latitude": 53.248446,
"longitude": -0.934063,
"wheelchairAccessible": false,
"country": "United Kingdom"
}, {
"name": "New Castle",
"city": "Sutton",
"latitude": 51.3614279,
"longitude": -0.193961,
"wheelchairAccessible": true,
"country": "United Kingdom"
}, {
"name": "Melvin",
"city": "Kirkton",
"latitude": 57.961476,
"longitude": -4.031512,
"wheelchairAccessible": true,
"country": "United Kingdom"
}, {
"name": "Canary",
"city": "Birmingham",
"latitude": 52.454148,
"longitude": -1.7138034,
"wheelchairAccessible": true,
"country": "United Kingdom"
}, {
"name": "Old Shore",
"city": "Birmingham",
"latitude": 52.454148,
"longitude": -1.7138034,
"wheelchairAccessible": false,
"country": "United Kingdom"
}, {
"name": "Spohn",
"city": "Milton",
"latitude": 53.248446,
"longitude": -0.934063,
"wheelchairAccessible": false,
"country": "United Kingdom"
}, {
"name": "Bellgrove",
"city": "Newton",
"latitude": 57.5842033,
"longitude": -3.8847449,
"wheelchairAccessible": false,
"country": "United Kingdom"
}, {
"name": "Sunnyside",
"city": "Normanton",
"latitude": 52.643749,
"longitude": -0.622129,
"wheelchairAccessible": true,
"country": "United Kingdom"
}, {
"name": "Charing Cross",
"city": "Ashley",
"latitude": 51.4139633,
"longitude": -2.2685462,
"wheelchairAccessible": true,
"country": "United Kingdom"
}, {
"name": "Carey",
"city": "Newtown",
"latitude": 51.3684218,
"longitude": -1.3218754,
"wheelchairAccessible": true,
"country": "United Kingdom"
}, {
"name": "Reinke",
"city": "Wirral",
"latitude": 53.3758568,
"longitude": -3.1605843,
"wheelchairAccessible": false,
"country": "United Kingdom"
}, {
"name": "Dorton",
"city": "Seaton",
"latitude": 52.574095,
"longitude": -0.672296,
"wheelchairAccessible": false,
"country": "United Kingdom"
}, {
"name": "Bunting",
"city": "Bristol",
"latitude": 51.4063964,
"longitude": -2.6467239,
"wheelchairAccessible": false,
"country": "United Kingdom"
}, {
"name": "Cody",
"city": "London",
"latitude": 51.5136143,
"longitude": -0.1365486,
"wheelchairAccessible": false,
"country": "United Kingdom"
}, {
"name": "Weeping Birch",
"city": "Newport",
"latitude": 52.6915552,
"longitude": 1.6993747,
"wheelchairAccessible": true,
"country": "United Kingdom"
}, {
"name": "West",
"city": "Twyford",
"latitude": 52.683916,
"longitude": -0.922509,
"wheelchairAccessible": false,
"country": "United Kingdom"
}, {
"name": "Warner",
"city": "Birmingham",
"latitude": 52.4608207,
"longitude": -1.8886845,
"wheelchairAccessible": false,
"country": "United Kingdom"
}, {
"name": "Columbus",
"city": "Whitchurch",
"latitude": 51.4057505,
"longitude": -2.5573746,
"wheelchairAccessible": false,
"country": "United Kingdom"
}, {
"name": "Moland",
"city": "Seaton",
"latitude": 52.574095,
"longitude": -0.672296,
"wheelchairAccessible": false,
"country": "United Kingdom"
}, {
"name": "Birchwood",
"city": "Ashley",
"latitude": 51.4139633,
"longitude": -2.2685462,
"wheelchairAccessible": true,
"country": "United Kingdom"
}, {
"name": "Hudson",
"city": "Ashley",
"latitude": 51.4139633,
"longitude": -2.2685462,
"wheelchairAccessible": true,
"country": "United Kingdom"
}, {
"name": "Luster",
"city": "Seaton",
"latitude": 52.574095,
"longitude": -0.672296,
"wheelchairAccessible": false,
"country": "United Kingdom"
}, {
"name": "Schlimgen",
"city": "Seaton",
"latitude": 52.574095,
"longitude": -0.672296,
"wheelchairAccessible": false,
"country": "United Kingdom"
}, {
"name": "Basil",
"city": "Belfast",
"latitude": 54.5940619,
"longitude": -5.9308088,
"wheelchairAccessible": true,
"country": "United Kingdom"
}, {
"name": "Warrior",
"city": "Kingston",
"latitude": 50.887101,
"longitude": -2.355369,
"wheelchairAccessible": true,
"country": "United Kingdom"
}, {
"name": "Sloan",
"city": "Liverpool",
"latitude": 53.4913801,
"longitude": -2.867264,
"wheelchairAccessible": true,
"country": "United Kingdom"
}, {
"name": "Luster",
"city": "Newton",
"latitude": 52.913784,
"longitude": -0.445788,
"wheelchairAccessible": true,
"country": "United Kingdom"
}, {
"name": "Onsgard",
"city": "Preston",
"latitude": 53.763201,
"longitude": -2.70309,
"wheelchairAccessible": false,
"country": "United Kingdom"
}, {
"name": "Nobel",
"city": "Sheffield",
"latitude": 53.3992318,
"longitude": -1.7622544,
"wheelchairAccessible": true,
"country": "United Kingdom"
}, {
"name": "Elka",
"city": "Birmingham",
"latitude": 52.454148,
"longitude": -1.7138034,
"wheelchairAccessible": false,
"country": "United Kingdom"
}, {
"name": "Chive",
"city": "Linton",
"latitude": 54.0542238,
"longitude": -2.0215836,
"wheelchairAccessible": true,
"country": "United Kingdom"
}, {
"name": "Melby",
"city": "Whitchurch",
"latitude": 51.4057505,
"longitude": -2.5573746,
"wheelchairAccessible": true,
"country": "United Kingdom"
}, {
"name": "Bunting",
"city": "Church End",
"latitude": 51.598282,
"longitude": -0.198414,
"wheelchairAccessible": false,
"country": "United Kingdom"
}, {
"name": "Packers",
"city": "London",
"latitude": 51.5136143,
"longitude": -0.1365486,
"wheelchairAccessible": true,
"country": "United Kingdom"
}, {
"name": "Sutteridge",
"city": "Sutton",
"latitude": 51.195454,
"longitude": 1.3443099,
"wheelchairAccessible": false,
"country": "United Kingdom"
}, {
"name": "Laurel",
"city": "Normanton",
"latitude": 52.643749,
"longitude": -0.622129,
"wheelchairAccessible": false,
"country": "United Kingdom"
}, {
"name": "Namekagon",
"city": "Brampton",
"latitude": 52.382748,
"longitude": 1.580316,
"wheelchairAccessible": false,
"country": "United Kingdom"
}, {
"name": "David",
"city": "Birmingham",
"latitude": 52.4608207,
"longitude": -1.8886845,
"wheelchairAccessible": false,
"country": "United Kingdom"
}, {
"name": "Talmadge",
"city": "Carlton",
"latitude": 54.256793,
"longitude": -1.90546,
"wheelchairAccessible": true,
"country": "United Kingdom"
}, {
"name": "Bultman",
"city": "Milton",
"latitude": 57.6727414,
"longitude": -2.955445,
"wheelchairAccessible": false,
"country": "United Kingdom"
}, {
"name": "Delladonna",
"city": "Kingston",
"latitude": 50.887101,
"longitude": -2.355369,
"wheelchairAccessible": true,
"country": "United Kingdom"
}, {
"name": "Drewry",
"city": "Birmingham",
"latitude": 52.4608207,
"longitude": -1.8886845,
"wheelchairAccessible": false,
"country": "United Kingdom"
}, {
"name": "Autumn Leaf",
"city": "Whitwell",
"latitude": 54.3886617,
"longitude": -1.555363,
"wheelchairAccessible": true,
"country": "United Kingdom"
}, {
"name": "Grover",
"city": "Craigavon",
"latitude": 54.4429264,
"longitude": -6.4175653,
"wheelchairAccessible": false,
"country": "United Kingdom"
}, {
"name": "Ludington",
"city": "London",
"latitude": 51.5116933,
"longitude": -0.0829051,
"wheelchairAccessible": false,
"country": "United Kingdom"
}, {
"name": "Union",
"city": "London",
"latitude": 51.4984999,
"longitude": -0.1401487,
"wheelchairAccessible": false,
"country": "United Kingdom"
}, {
"name": "Dunning",
"city": "Linton",
"latitude": 54.0542238,
"longitude": -2.0215836,
"wheelchairAccessible": false,
"country": "United Kingdom"
}, {
"name": "Shoshone",
"city": "Linton",
"latitude": 54.0542238,
"longitude": -2.0215836,
"wheelchairAccessible": false,
"country": "United Kingdom"
}, {
"name": "Manufacturers",
"city": "Manchester",
"latitude": 53.4508777,
"longitude": -2.2294364,
"wheelchairAccessible": true,
"country": "United Kingdom"
}, {
"name": "Dakota",
"city": "Church End",
"latitude": 51.598282,
"longitude": -0.198414,
"wheelchairAccessible": true,
"country": "United Kingdom"
}, {
"name": "Old Shore",
"city": "Sutton",
"latitude": 51.3614279,
"longitude": -0.193961,
"wheelchairAccessible": true,
"country": "United Kingdom"
}, {
"name": "Schiller",
"city": "Milton",
"latitude": 53.248446,
"longitude": -0.934063,
"wheelchairAccessible": false,
"country": "United Kingdom"
}, {
"name": "Surrey",
"city": "Church End",
"latitude": 52.216745,
"longitude": 0.1405602,
"wheelchairAccessible": true,
"country": "United Kingdom"
}, {
"name": "Chive",
"city": "Craigavon",
"latitude": 54.4429264,
"longitude": -6.4175653,
"wheelchairAccessible": false,
"country": "United Kingdom"
}, {
"name": "Southridge",
"city": "Sutton",
"latitude": 51.3614279,
"longitude": -0.193961,
"wheelchairAccessible": false,
"country": "United Kingdom"
}, {
"name": "Elka",
"city": "Carlton",
"latitude": 54.256793,
"longitude": -1.90546,
"wheelchairAccessible": false,
"country": "United Kingdom"
}, {
"name": "Harper",
"city": "Pentre",
"latitude": 52.753093,
"longitude": -2.941678,
"wheelchairAccessible": true,
"country": "United Kingdom"
}, {
"name": "Loeprich",
"city": "Sutton",
"latitude": 51.3614279,
"longitude": -0.193961,
"wheelchairAccessible": false,
"country": "United Kingdom"
}, {
"name": "South",
"city": "London",
"latitude": 51.5142805,
"longitude": -0.1284654,
"wheelchairAccessible": true,
"country": "United Kingdom"
}, {
"name": "Hudson",
"city": "Horton",
"latitude": 51.5598572,
"longitude": -2.3523889,
"wheelchairAccessible": false,
"country": "United Kingdom"
}, {
"name": "Mayer",
"city": "Liverpool",
"latitude": 53.4913801,
"longitude": -2.867264,
"wheelchairAccessible": true,
"country": "United Kingdom"
}, {
"name": "Bonner",
"city": "Church End",
"latitude": 52.216745,
"longitude": 0.1405602,
"wheelchairAccessible": false,
"country": "United Kingdom"
}]

